<?xml version="1.0" encoding="utf-8" ?>
<balises>
    <balise>
        <ville>Tirana</ville>
        <latlng>41.3273931,19.8193202</latlng>
    </balise>
    <balise>
        <ville>Berlin</ville>
        <latlng>52.5182606,13.4085098</latlng>
    </balise>
    <balise>
        <ville>Andorre-la-Vieille</ville>
        <latlng>42.5073107,1.5220304</latlng>
    </balise>
    <balise>
        <ville>Vienne</ville>
        <latlng>48.2108919,16.3566164</latlng>
    </balise>
    <balise>
        <ville>Bruxelles</ville>
        <latlng>50.8465582,4.3515991</latlng>
    </balise>
    <balise>
        <ville>Minsk</ville>
        <latlng>53.9035455,27.5559855</latlng>
    </balise>
    <balise>
        <ville>Sarajevo</ville>
        <latlng>43.8590879,18.4334057</latlng>
    </balise>
    <balise>
        <ville>Sofia</ville>
        <latlng>42.696972,23.3317033</latlng>
    </balise>
    <balise>
        <ville>Nicosie</ville>
        <latlng>35.169338,33.3610117</latlng>
    </balise>
    <balise>
        <ville>Zagreb</ville>
        <latlng>45.8157401,15.9732438</latlng>
    </balise>
    <balise>
        <ville>Copenhague</ville>
        <latlng>55.6753344,12.5700612</latlng>
    </balise>
    <balise>
        <ville>Madrid</ville>
        <latlng>40.4186093,-3.6917449</latlng>
    </balise>
    <balise>
        <ville>Tallin</ville>
        <latlng>59.4370095,24.7452854</latlng>
    </balise>
    <balise>
        <ville>Helsinki</ville>
        <latlng>60.1680575,24.9528637</latlng>
    </balise>
    <balise>
        <ville>Athènes</ville>
        <latlng>37.9819267,23.7271277</latlng>
    </balise>
    <balise>
        <ville>Budapest</ville>
        <latlng>47.4952913,19.0547306</latlng>
    </balise>
    <balise>
        <ville>Dublin</ville>
        <latlng>53.343863,-6.2671484</latlng>
    </balise>
    <balise>
        <ville>Reykjavik</ville>
        <latlng>64.1462024,-21.9422781</latlng>
    </balise>
    <balise>
        <ville>Rome</ville>
        <latlng>41.8929896,12.4834268</latlng>
    </balise>
    <balise>
        <ville>Pristina</ville>
        <latlng>42.6663424,21.1645115</latlng>
    </balise>
    <balise>
        <ville>Riga</ville>
        <latlng>56.9478251,24.1063818</latlng>
    </balise>
    <balise>
        <ville>Vaduz</ville>
        <latlng>47.140762,9.5219884</latlng>
    </balise>
    <balise>
        <ville>Vilnius</ville>
        <latlng>54.6780212,25.2869074</latlng>
    </balise>
    <balise>
        <ville>Luxembourg</ville>
        <latlng>49.6101995,6.1304314</latlng>
    </balise>
    <balise>
        <ville>Skopje</ville>
        <latlng>42.0040614,21.4201982</latlng>
    </balise>
    <balise>
        <ville>La Valette</ville>
        <latlng>35.8982299,14.5133306</latlng>
    </balise>
    <balise>
        <ville>Chișinău</ville>
        <latlng>47.0226039,28.8347419</latlng>
    </balise>
    <balise>
        <ville>Monaco</ville>
        <latlng>43.7307985,7.4237355</latlng>
    </balise>
    <balise>
        <ville>Podgorica</ville>
        <latlng>42.4417281,19.261249</latlng>
    </balise>
    <balise>
        <ville>Oslo</ville>
        <latlng>59.9121419,10.7336301</latlng>
    </balise>
    <balise>
        <ville>Amsterdam</ville>
        <latlng>52.3712024,4.8923599</latlng>
    </balise>
    <balise>
        <ville>Varsovie</ville>
        <latlng>52.2316714,21.0055922</latlng>
    </balise>
    <balise>
        <ville>Lisbonne</ville>
        <latlng>38.7081595,-9.1386762</latlng>
    </balise>
    <balise>
        <ville>Bucarest</ville>
        <latlng>44.4344268,26.0931091</latlng>
    </balise>
    <balise>
        <ville>Bucarest</ville>
        <latlng>44.4344268,26.0931091</latlng>
    </balise>
    <balise>
        <ville>Londres</ville>
        <latlng>51.5047973,-0.0786506</latlng>
    </balise>
    <balise>
        <ville>Moscou</ville>
        <latlng>55.7684569,37.6117631</latlng>
    </balise>
    <balise>
        <ville>Prague</ville>
        <latlng>50.0871255,14.4180244</latlng>
    </balise>
    <balise>
        <ville>Belgrade</ville>
        <latlng>44.8108237,20.4624568</latlng>
    </balise>
    <balise>
        <ville>Bratislava</ville>
        <latlng>48.16742,17.1380169</latlng>
    </balise>
    <balise>
        <ville>Ljubljana</ville>
        <latlng>46.0498525,14.5070564</latlng>
    </balise>
    <balise>
        <ville>Berne</ville>
        <latlng>46.948734,7.452302</latlng>
    </balise>
    <balise>
        <ville>Stockholm</ville>
        <latlng>59.3274363,18.05425</latlng>
    </balise>
    <balise>
        <ville>Kiev</ville>
        <latlng>50.4463097,30.5202968</latlng>
    </balise>
    <balise>
        <ville>Edimbourg</ville>
        <latlng>55.9503059,-3.1903442</latlng>
    </balise>
    <balise>
        <ville>Cardiff</ville>
        <latlng>51.4849872,-3.178565</latlng>
    </balise>
    <balise>
        <ville>Belfast</ville>
        <latlng>54.5966175,-5.9301252</latlng>
    </balise>
    <balise>
        <ville>Munich</ville>
        <latlng>48.1375695,11.5757365</latlng>
    </balise>
    <balise>
        <ville>Barcelone</ville>
        <latlng>41.3823353,2.1772774</latlng>
    </balise>
    <balise>
        <ville>Liverpool</ville>
        <latlng>53.4071053,-2.9916084</latlng>
    </balise>
    <balise>
        <ville>Milan</ville>
        <latlng>45.4667145,9.1904677</latlng>
    </balise>
    <balise>
        <ville>Zurich</ville>
        <latlng>47.3715376,8.5426373</latlng>
    </balise>
    <balise>
        <ville>Porto</ville>
        <latlng>41.1499794,-8.6107682</latlng>
    </balise>
    <balise>
        <ville>Thessalonique</ville>
        <latlng>40.6234007,22.9539688</latlng>
    </balise>
    <balise>
        <ville>Bergen</ville>
        <latlng>60.3919971,5.3279437</latlng>
    </balise>
    <balise>
        <ville>Göteborg</ville>
        <latlng>57.7068913,11.9659807</latlng>
    </balise>
    <balise>
        <ville>Oulu</ville>
        <latlng>65.0139818,25.4719392</latlng>
    </balise>
    <balise>
        <ville>Cracovie</ville>
        <latlng>50.0615273,19.9364244</latlng>
    </balise>
    <balise>
        <ville>Rotterdam</ville>
        <latlng>51.9227505,4.4793464</latlng>
    </balise>
    <balise>
        <ville>Liège</ville>
        <latlng>50.6453512,5.5756142</latlng>
    </balise>
    <balise>
        <ville>Innsbruck</ville>
        <latlng>47.2657338,11.3938872</latlng>
    </balise>
    <balise>
        <ville>Zadar</ville>
        <latlng>44.1145025,15.2278023</latlng>
    </balise>
    <balise>
        <ville>Saint-Petersbourg</ville>
        <latlng>59.9291547,30.3042336</latlng>
    </balise>
    <balise>
        <ville>Kaliningrad</ville>
        <latlng>54.7193753,20.500381</latlng>
    </balise>
    <balise>
        <ville>Palerme</ville>
        <latlng>38.1150584,13.3622449</latlng>
    </balise>
    <balise>
        <ville>Hambourg</ville>
        <latlng>53.5504278,9.9923996</latlng>
    </balise>
    <balise>
        <ville>Bilbao</ville>
        <latlng>43.264234,-2.9235365</latlng>
    </balise>
    <balise>
        <ville>Séville</ville>
        <latlng>37.3995441,-5.9973087</latlng>
    </balise>
    <balise>
        <ville>Klaipèda</ville>
        <latlng>55.7130058,21.1341463</latlng>
    </balise>
    <balise>
        <ville>Marioupol</ville>
        <latlng>47.096289,37.540684</latlng>
    </balise>
    <balise>
        <ville>Varna</ville>
        <latlng>43.1843313,27.8931989</latlng>
    </balise>
    <balise>
        <ville>Istanbul</ville>
        <latlng>41.012886,28.9572793</latlng>
    </balise>
    <balise>
        <ville>Francfort-sur-le-Main</ville>
        <latlng>50.110478,8.6814038</latlng>
    </balise>
    <balise>
        <ville>Lviv</ville>
        <latlng>49.841965,24.0316097</latlng>
    </balise>
    <balise>
        <ville>Cluj-Napoca</ville>
        <latlng>46.7682349,23.5847871</latlng>
    </balise>
    <balise>
        <ville>Gdansk</ville>
        <latlng>54.3539864,18.6479482</latlng>
    </balise>
    <balise>
        <ville>Aalborg</ville>
        <latlng>57.0494586,9.9225189</latlng>
    </balise>
    <balise>
        <ville>Maribor</ville>
        <latlng>46.5578461,15.6453548</latlng>
    </balise>
    <balise>
        <ville>Timisoara</ville>
        <latlng>45.7510879,21.2263038</latlng>
    </balise>
    <balise>
        <ville>Plovdiv</ville>
        <latlng>42.1436956,24.7489867</latlng>
    </balise>
    <balise>
        <ville>Osijek</ville>
        <latlng>45.5597623,18.6964971</latlng>
    </balise>
    <balise>
        <ville>Pula</ville>
        <latlng>44.8701979,13.8421003</latlng>
    </balise>
    <balise>
        <ville>Alexandroúpoli</ville>
        <latlng>40.845331,25.8744568</latlng>
    </balise>
    <balise>
        <ville>Poznań</ville>
        <latlng>52.4063472,16.9354221</latlng>
    </balise>
    <balise>
        <ville>Graz</ville>
        <latlng>47.0706794,15.43838</latlng>
    </balise>
    <balise>
        <ville>Brno</ville>
        <latlng>49.193905,16.6060172</latlng>
    </balise>
    <balise>
        <ville>Košice</ville>
        <latlng>48.7234057,21.25688</latlng>
    </balise>
    <balise>
        <ville>Saranda</ville>
        <latlng>39.8740491,20.0060378</latlng>
    </balise>
    <balise>
        <ville>Cagliari</ville>
        <latlng>39.2153575,9.1104209</latlng>
    </balise>
    <balise>
        <ville>Palma</ville>
        <latlng>39.5693937,2.6500741</latlng>
    </balise>
    <balise>
        <ville>Banja Luka</ville>
        <latlng>44.7718196,17.1912342</latlng>
    </balise>
    <balise>
        <ville>Héraklion</ville>
        <latlng>35.3403491,25.1344861</latlng>
    </balise>
    <balise>
        <ville>Venise</ville>
        <latlng>45.4348345,12.3382652</latlng>
    </balise>
    <balise>
        <ville>Białystok</ville>
        <latlng>53.132296,23.158542</latlng>
    </balise>
    <balise>
        <ville>Olympie</ville>
        <latlng>37.6423207,21.6253936</latlng>
    </balise>
    <balise>
        <ville>Faro</ville>
        <latlng>37.0136777,-7.9345941</latlng>
    </balise>
    <balise>
        <ville>Sébastopol</ville>
        <latlng>44.6096144,33.5421774</latlng>
    </balise>
    <balise>
        <ville>Volgograd</ville>
        <latlng>48.7046354,44.5159394</latlng>
    </balise>
    <balise>
        <ville>Groningue</ville>
        <latlng>53.2185454,6.5669094</latlng>
    </balise>
    <balise>
        <ville>Kaunas</ville>
        <latlng>54.8968732,23.8858728</latlng>
    </balise>
</balises>
