<?xml version="1.0" encoding="utf-8" ?>
<balises>
    <balise>
        <ville>Paris</ville>
        <latlng>48.8564826,2.3502248</latlng>
    </balise>
    <balise>
        <ville>Marseille</ville>
        <latlng>43.296336,5.3690131</latlng>
    </balise>
    <balise>
        <ville>Lyon</ville>
        <latlng>45.7676124,4.834709</latlng>
    </balise>
    <balise>
        <ville>Rennes</ville>
        <latlng>48.1111506,-1.6822335</latlng>
    </balise>
    <balise>
        <ville>Bordeaux</ville>
        <latlng>44.8376474,-0.5786159</latlng>
    </balise>
    <balise>
        <ville>Lille</ville>
        <latlng>50.6305767,3.0709542</latlng>
    </balise>
    <balise>
        <ville>Brest</ville>
        <latlng>48.3914598,-4.4870149</latlng>
    </balise>
    <balise>
        <ville>Strasbourg</ville>
        <latlng>48.584398,7.7505501</latlng>
    </balise>
    <balise>
        <ville>Clermont-Ferrand</ville>
        <latlng>45.779718,3.0845225</latlng>
    </balise>
    <balise>
        <ville>Guéret</ville>
        <latlng>46.1693593,1.8693103</latlng>
    </balise>
    <balise>
        <ville>Toulouse</ville>
        <latlng>43.6045881,1.4439952</latlng>
    </balise>
    <balise>
        <ville>Laval</ville>
        <latlng>48.0706258,-0.7737538</latlng>
    </balise>
    <balise>
        <ville>Nice</ville>
        <latlng>43.6959545,7.2714633</latlng>
    </balise>
    <balise>
        <ville>Montpellier</ville>
        <latlng>43.5985153,3.8968425</latlng>
    </balise>
    <balise>
        <ville>Le Havre</ville>
        <latlng>49.4942267,0.1077259</latlng>
    </balise>
    <balise>
        <ville>Nancy</ville>
        <latlng>48.6929523,6.1836468</latlng>
    </balise>
    <balise>
        <ville>La Rochelle</ville>
        <latlng>46.159632,-1.1514676</latlng>
    </balise>
    <balise>
        <ville>Dijon</ville>
        <latlng>47.3218498,5.0415237</latlng>
    </balise>
    <balise>
        <ville>Metz</ville>
        <latlng>49.119602,6.1763936</latlng>
    </balise>
    <balise>
        <ville>Amiens</ville>
        <latlng>49.8942659,2.295816</latlng>
    </balise>
    <balise>
        <ville>Quimper</ville>
        <latlng>47.9962604,-4.1020506</latlng>
    </balise>
    <balise>
        <ville>Nantes</ville>
        <latlng>47.2187051,-1.5537855</latlng>
    </balise>
    <balise>
        <ville>Tours</ville>
        <latlng>47.3905953,0.689307</latlng>
    </balise>
    <balise>
        <ville>Troyes</ville>
        <latlng>48.2974146,4.0743174</latlng>
    </balise>
    <balise>
        <ville>Grenoble</ville>
        <latlng>45.1864831,5.736497</latlng>
    </balise>
    <balise>
        <ville>Reims</ville>
        <latlng>49.2579835,4.0317102</latlng>
    </balise>
    <balise>
        <ville>Calais</ville>
        <latlng>50.9526422,1.8543986</latlng>
    </balise>
    <balise>
        <ville>Le Mans</ville>
        <latlng>48.0075757,0.1973284</latlng>
    </balise>
    <balise>
        <ville>Bayonne</ville>
        <latlng>43.4932949,-1.4754268</latlng>
    </balise>
    <balise>
        <ville>Orléans</ville>
        <latlng>47.9027632,1.9089698</latlng>
    </balise>
    <balise>
        <ville>Angers</ville>
        <latlng>47.4713027,-0.54803</latlng>
    </balise>
    <balise>
        <ville>Limoges</ville>
        <latlng>45.8265966,1.2603682</latlng>
    </balise>
    <balise>
        <ville>Annecy</ville>
        <latlng>45.8993169,6.1294209</latlng>
    </balise>
    <balise>
        <ville>Perpignan</ville>
        <latlng>42.699511,2.894584</latlng>
    </balise>
    <balise>
        <ville>Besançon</ville>
        <latlng>47.2377728,6.0239019</latlng>
    </balise>
    <balise>
        <ville>Bourges</ville>
        <latlng>47.080242,2.3990349</latlng>
    </balise>
    <balise>
        <ville>Saint-Lô</ville>
        <latlng>49.1160877,-1.0909103</latlng>
    </balise>
    <balise>
        <ville>Caen</ville>
        <latlng>49.181193,-0.3729888</latlng>
    </balise>
    <balise>
        <ville>Auxerre</ville>
        <latlng>47.7960257,3.5705147</latlng>
    </balise>
    <balise>
        <ville>Brive-La-Gaillarde</ville>
        <latlng>45.1595244,1.5339327</latlng>
    </balise>
    <balise>
        <ville>Périgueux</ville>
        <latlng>45.1839259,0.7156175</latlng>
    </balise>
    <balise>
        <ville>Rouen</ville>
        <latlng>49.4432388,1.0999504</latlng>
    </balise>
    <balise>
        <ville>Poitiers</ville>
        <latlng>46.5801611,0.3409645</latlng>
    </balise>
    <balise>
        <ville>Pau</ville>
        <latlng>43.2948429,-0.3707422</latlng>
    </balise>
    <balise>
        <ville>Rodez</ville>
        <latlng>44.3494546,2.5759934</latlng>
    </balise>
    <balise>
        <ville>Chateauroux</ville>
        <latlng>46.811233,1.6915446</latlng>
    </balise>
    <balise>
        <ville>Dunkerque</ville>
        <latlng>51.0376844,2.3765672</latlng>
    </balise>
    <balise>
        <ville>Saint-Brieuc</ville>
        <latlng>48.5138262,-2.7642783</latlng>
    </balise>
    <balise>
        <ville>Guingamp</ville>
        <latlng>48.5612241,-3.1483689</latlng>
    </balise>
    <balise>
        <ville>Bourg-en-Bresse</ville>
        <latlng>46.2052505,5.225286</latlng>
    </balise>
    <balise>
        <ville>Bastia</ville>
        <latlng>42.7023038,9.4520275</latlng>
    </balise>
    <balise>
        <ville>Ajaccio</ville>
        <latlng>41.9193347,8.7390544</latlng>
    </balise>
    <balise>
        <ville>Mulhouse</ville>
        <latlng>47.7499645,7.3363028</latlng>
    </balise>
    <balise>
        <ville>Angoulême</ville>
        <latlng>45.6486368,0.1561374</latlng>
    </balise>
    <balise>
        <ville>Valence</ville>
        <latlng>44.933184,4.8921808</latlng>
    </balise>
    <balise>
        <ville>Vannes</ville>
        <latlng>47.6582894,-2.7609363</latlng>
    </balise>
    <balise>
        <ville>Aurillac</ville>
        <latlng>44.9299655,2.4454375</latlng>
    </balise>
    <balise>
        <ville>Evreux</ville>
        <latlng>49.0270043,1.1515907</latlng>
    </balise>
    <balise>
        <ville>Blois</ville>
        <latlng>47.5886449,1.3372574</latlng>
    </balise>
    <balise>
        <ville>Carcassonne</ville>
        <latlng>43.2119723,2.3529984</latlng>
    </balise>
    <balise>
        <ville>Montluçon</ville>
        <latlng>46.33877,2.6067263</latlng>
    </balise>
    <balise>
        <ville>Compiègne</ville>
        <latlng>49.417497,2.8259226</latlng>
    </balise>
    <balise>
        <ville>Saint-Quentin</ville>
        <latlng>49.8469828,3.2872017</latlng>
    </balise>
    <balise>
        <ville>Dieppe</ville>
        <latlng>49.92281,1.0776498</latlng>
    </balise>
    <balise>
        <ville>Montélimar</ville>
        <latlng>44.5568695,4.7494077</latlng>
    </balise>
    <balise>
        <ville>Gap</ville>
        <latlng>44.5588677,6.0797466</latlng>
    </balise>
    <balise>
        <ville>Versailles</ville>
        <latlng>48.8013854,2.1301333</latlng>
    </balise>
    <balise>
        <ville>Melun</ville>
        <latlng>48.5400783,2.661727</latlng>
    </balise>
    <balise>
        <ville>Meaux</ville>
        <latlng>48.9584515,2.877958</latlng>
    </balise>
    <balise>
        <ville>Saint-Dizier</ville>
        <latlng>48.6375093,4.947491</latlng>
    </balise>
    <balise>
        <ville>Nevers</ville>
        <latlng>46.9878735,3.157611</latlng>
    </balise>
    <balise>
        <ville>Chalon-sur-Saône</ville>
        <latlng>46.7806203,4.8538271</latlng>
    </balise>
    <balise>
        <ville>Vichy</ville>
        <latlng>46.1251263,3.4271775</latlng>
    </balise>
    <balise>
        <ville>Saint-Etienne</ville>
        <latlng>45.4399226,4.3873244</latlng>
    </balise>
    <balise>
        <ville>Toulon</ville>
        <latlng>43.1204352,5.9323872</latlng>
    </balise>
    <balise>
        <ville>Mont-de-Marsan</ville>
        <latlng>43.8908473,-0.501004</latlng>
    </balise>
    <balise>
        <ville>Agen</ville>
        <latlng>44.2030882,0.6162551</latlng>
    </balise>
    <balise>
        <ville>Bergerac</ville>
        <latlng>44.8500468,0.4848274</latlng>
    </balise>
    <balise>
        <ville>Colmar</ville>
        <latlng>48.079402,7.3579491</latlng>
    </balise>
    <balise>
        <ville>Thonon-les-Bains</ville>
        <latlng>46.3732108,6.4776917</latlng>
    </balise>
    <balise>
        <ville>Beauvais</ville>
        <latlng>49.4294843,2.0822378</latlng>
    </balise>
    <balise>
        <ville>Béziers</ville>
        <latlng>43.3427967,3.213204</latlng>
    </balise>
    <balise>
        <ville>Le Puy-en-Velay</ville>
        <latlng>45.0430755,3.8835223</latlng>
    </balise>
    <balise>
        <ville>Vierzon</ville>
        <latlng>47.221363,2.0696741</latlng>
    </balise>
    <balise>
        <ville>Issoudun</ville>
        <latlng>46.9477419,1.9886386</latlng>
    </balise>
    <balise>
        <ville>Verdun</ville>
        <latlng>49.1589648,5.386732</latlng>
    </balise>
    <balise>
        <ville>Sarreguemines</ville>
        <latlng>49.1098181,7.0706346</latlng>
    </balise>
    <balise>
        <ville>Vittel</ville>
        <latlng>48.2020872,5.9425833</latlng>
    </balise>
    <balise>
        <ville>Lisieux</ville>
        <latlng>49.1458349,0.2277336</latlng>
    </balise>
    <balise>
        <ville>Vire</ville>
        <latlng>48.8377708,-0.8884935</latlng>
    </balise>
    <balise>
        <ville>Granville</ville>
        <latlng>48.8376283,-1.5972187</latlng>
    </balise>
    <balise>
        <ville>Lannion</ville>
        <latlng>48.732076,-3.4593227</latlng>
    </balise>
    <balise>
        <ville>Saint-Malo</ville>
        <latlng>48.6318786,-1.9815665</latlng>
    </balise>
    <balise>
        <ville>Chartres</ville>
        <latlng>48.4439058,1.4890537</latlng>
    </balise>
    <balise>
        <ville>Dole</ville>
        <latlng>47.0908912,5.4891968</latlng>
    </balise>
    <balise>
        <ville>Roanne</ville>
        <latlng>46.0341176,4.0723006</latlng>
    </balise>
    <balise>
        <ville>Saint-Flour</ville>
        <latlng>45.0329682,3.0947967</latlng>
    </balise>
    <balise>
        <ville>Cahors</ville>
        <latlng>44.4467635,1.4410698</latlng>
    </balise>
    <balise>
        <ville>Lens</ville>
        <latlng>50.4287834,2.8318758</latlng>
    </balise>
    <balise>
        <ville>Moulins</ville>
        <latlng>46.5661552,3.3332843</latlng>
    </balise>
    <balise>
        <ville>Carhaix-Plouguer</ville>
        <latlng>48.2757285,-3.5743013</latlng>
    </balise>
</balises>
